[{"sexo":"male","os":"Mac","lat":37.17,"registrado":"11/13/2017","inscrito":"11/13/2017 16:09:52","lenguajes":"R","city":"Granada","lon":-3.59},{"sexo":"male","os":"windows 10","lat":37.17,"registrado":"09/10/2017","inscrito":"09/10/2017 16:46:01","city":"Granada","lenguajes":"programacion en C y en Java","lon":-3.59},{"sexo":"female","lat":37.17,"os":"Mac OS","city":"Granada","lenguajes":"R, STATA, GRETL, SPSS.","inscrito":"10/03/2017 17:18:37","registrado":"10/03/2017","lon":-3.59},{"sexo":"female","lat":37.17,"os":"Windows","city":"Granada","lenguajes":"R, spss, excel, stagraphic","inscrito":"11/03/2017 11:55:26","registrado":"11/03/2017","lon":-3.59},{"sexo":"male","lat":37.17,"os":"Windows, ios","lenguajes":"R, matlab","city":"Granada","inscrito":"10/01/2017 20:31:34","registrado":"10/01/2017","lon":-3.59},{"registrado":"02/02/2016","inscrito":"04/20/2017 12:45:28","lenguajes":"C, C++, Python, Javascript","city":"Granada","lon":-3.59,"sexo":"male","lat":37.17,"os":"Arch Linux"},{"sexo":"male","os":"Mac os y linux","lat":37.17,"lenguajes":"R, python, sql, neo4j aplicado a las ciencias biológicas","city":"Granada","inscrito":"11/07/2017 23:30:34","registrado":"11/07/2017","lon":-3.59},{"os":"Windows","lat":45.45,"sexo":"male","lon":11,"inscrito":"11/05/2017 10:40:22","registrado":"11/05/2017","lenguajes":"Weka y R","city":"Verona"},{"inscrito":"09/18/2017 11:30:19","registrado":"09/18/2017","city":"Granada","lenguajes":"R\nMatlab\nPython","lon":-3.59,"sexo":"female","os":"Windows","lat":37.17},{"lenguajes":"R, Matlab","city":"Granada","registrado":"05/24/2017","inscrito":"05/24/2017 17:52:06","lon":-3.59,"sexo":"female","os":"Windows","lat":37.17},{"sexo":"female","os":"Windows (shame on me)","lat":37.17,"registrado":"11/11/2016","inscrito":"04/19/2017 18:33:46","city":"Granada","lenguajes":"C++, Python, \"R\"","lon":-3.59},{"os":"Linux (Xubuntu y Ubuntu)","lat":37.17,"sexo":"X","lon":-3.59,"lenguajes":"R, Shiny, SPSS, Java","city":"Granada","inscrito":"09/18/2017 11:43:27","registrado":"09/18/2017"},{"sexo":"female","os":"Arch, Windows 10","lat":37.17,"city":"Granada","lenguajes":"C, C++, C#, Python, Java, R, SQL, Latex","registrado":"10/06/2016","inscrito":"05/02/2017 10:30:52","lon":-3.59},{"os":"Windoms y Ubuntu","lat":37.17,"sexo":"male","lon":-3.59,"lenguajes":"R","city":"Granada","registrado":"05/18/2017","inscrito":"05/18/2017 19:03:24"},{"sexo":"male","os":"Windows ","lat":40.42,"registrado":"06/01/2017","inscrito":"06/01/2017 11:58:54","lenguajes":"R principalmente","city":"Madrid","lon":-3.71},{"sexo":"male","lat":41.4,"os":"Linux","city":"Barcelona","lenguajes":"R, Python, C++","inscrito":"09/11/2017 19:16:43","registrado":"09/11/2017","lon":2.17},{"sexo":"male","os":"Mac","lat":36.72,"inscrito":"08/01/2017 02:18:28","registrado":"07/31/2017","lenguajes":"Lenguaje R, Lenguaje Prolog","city":"Málaga","lon":-4.42},{"lat":37.17,"os":"Unix\nLinux\r\nWindows\r\nIOS\r\n","sexo":"male","lon":-3.59,"city":"Granada","lenguajes":"PHP, Python, C++, script","inscrito":"11/07/2017 18:14:11","registrado":"02/07/2017"},{"sexo":"female","lat":42.51,"os":"Mac","registrado":"07/24/2017","inscrito":"07/24/2017 12:21:07","lenguajes":"R","city":"Andorra la Vella","lon":1.51},{"lon":2.17,"registrado":"07/19/2017","inscrito":"07/19/2017 13:49:24","city":"Barcelona","lenguajes":null,"lat":41.4,"os":null,"sexo":"female"},{"sexo":"male","lat":40.42,"os":"Windows","city":"Madrid","lenguajes":"R y Matlab","registrado":"09/21/2017","inscrito":"09/21/2017 12:00:03","lon":-3.71},{"lon":-1.13,"city":"Murcia","lenguajes":"R, Python.","registrado":"10/31/2017","inscrito":"10/31/2017 10:29:01","lat":37.98,"os":"MacOs, Ubuntu, Xubuntu, Debian, Windows.","sexo":"male"},{"os":"OS","lat":37.17,"sexo":"male","lon":-3.59,"inscrito":"04/19/2017 18:33:46","registrado":"04/06/2017","city":"Granada","lenguajes":"R, SQL, Git,"},{"sexo":"male","os":"Windows, OS","lat":39.48,"city":"Valencia","lenguajes":"R","registrado":"11/04/2017","inscrito":"11/04/2017 17:17:53","lon":-0.39},{"lon":-3.59,"inscrito":"09/15/2017 19:20:51","registrado":"09/15/2017","lenguajes":"R, Phyton, Pascal...","city":"Granada","lat":37.17,"os":"GNU/Linux (Xubuntu 64)","sexo":"male"},{"registrado":"07/19/2017","inscrito":"07/19/2017 12:45:55","city":"Granada","lenguajes":"Wordpress, PHP, MYSQL, CSS","lon":-3.59,"sexo":"male","os":"Centos 7, Windows 10","lat":37.17},{"inscrito":"11/02/2017 10:23:49","registrado":"11/02/2017","lenguajes":"Principalmente: R, Java, python,","city":"Barcelona","lon":2.17,"sexo":"male","lat":41.4,"os":"Linux (Ubuntu)"},{"sexo":"male","os":"Unix","lat":37.17,"city":"Granada","lenguajes":"R","inscrito":"08/19/2017 19:18:44","registrado":"08/19/2017","lon":-3.59},{"inscrito":"10/29/2017 21:07:51","registrado":"10/29/2017","lenguajes":"R, javascript, python","city":"Santiago de Compostela","lon":-8.54,"sexo":"female","lat":42.88,"os":"Linux (Ubuntu mayormente), MacOSX, Windows"},{"city":"Granada","lenguajes":"R, stata, latex, C","inscrito":"05/29/2017 11:47:45","registrado":"05/29/2017","lon":-3.59,"sexo":"female","lat":37.17,"os":"windows 10"},{"lenguajes":"R, Statgraphics, SPSS, Matlab, SAS","city":"Madrid","registrado":"09/26/2017","inscrito":"09/26/2017 19:06:24","lon":-3.71,"sexo":"female","lat":40.42,"os":"Windows"},{"lon":-3.59,"lenguajes":"C/C++, Python,R, Maxima, Matlab , Mathematica,Octave","city":"Granada","inscrito":"06/04/2017 18:55:36","registrado":"09/08/2016","os":"Ahora mismo Ubuntu y W7","lat":37.17,"sexo":"X"},{"os":"Windows, Linux","lat":37.17,"sexo":"male","lon":-3.59,"city":"Granada","lenguajes":"R, Python","inscrito":"07/07/2017 11:34:03","registrado":"07/07/2017"},{"lon":-0.89,"city":"Zaragoza","lenguajes":"Java, PHP, javascript, html etc sublime, eclipse","inscrito":"11/13/2017 19:58:56","registrado":"11/13/2017","lat":41.65,"os":"Windows 10, Linux (Raspbian, Ubuntu)","sexo":"male"},{"lon":-3.59,"city":"Granada","lenguajes":"R\nSPSS\nSTATA","registrado":"09/30/2017","inscrito":"09/30/2017 11:59:19","os":"WINDOWS\nMac OS","lat":37.17,"sexo":"male"},{"lon":2.17,"city":"Barcelona","lenguajes":"R, Python, SQL","registrado":"09/15/2017","inscrito":"09/15/2017 15:12:14","os":"Windows","lat":41.4,"sexo":"male"},{"sexo":"female","lat":37.88,"os":"Windows","city":"Córdoba","lenguajes":"Como lenguajes de programación manejo R y un poco de Python","inscrito":"06/20/2017 12:30:13","registrado":"06/20/2017","lon":-4.77},{"lon":-3.59,"registrado":"11/08/2017","inscrito":"11/08/2017 13:29:34","lenguajes":"R","city":"Granada","lat":37.17,"os":"Windows 10","sexo":"female"},{"lon":-3.71,"lenguajes":"R, python","city":"Madrid","registrado":"10/31/2017","inscrito":"10/31/2017 15:05:00","lat":40.42,"os":"Linux","sexo":"female"},{"lat":37.17,"os":"sistema operativo windows","sexo":"female","lon":-3.59,"city":"Granada","lenguajes":"Uso el R, SPSS   y Excel","inscrito":"09/18/2017 23:22:04","registrado":"09/18/2017"},{"sexo":"female","lat":37.17,"os":"Windows","city":"Granada","lenguajes":"R\nMySQL\nMatlab\nPython\nStatgraphics","inscrito":"09/18/2017 11:41:17","registrado":"09/18/2017","lon":-3.59},{"inscrito":"05/26/2017 12:48:23","registrado":"05/26/2017","city":"Granada","lenguajes":"R, SAP, un poco de Python y Java","lon":-3.59,"sexo":"female","os":"Windows 7","lat":37.17},{"os":"R","lat":37.17,"sexo":"female","lon":-3.59,"inscrito":"10/03/2017 15:08:32","registrado":"10/03/2017","lenguajes":"Econometría","city":"Granada"},{"os":"Windows y Linux","lat":40.42,"sexo":"female","lon":-3.69,"registrado":"04/18/2017","inscrito":"04/20/2017 15:58:36","city":"Madrid","lenguajes":"R, Python"},{"lon":-3.71,"inscrito":"05/23/2017 00:12:31","registrado":"05/22/2017","lenguajes":"R, Tableau, Latex y programas para análisis estadístico y econométrico.","city":"Madrid","os":"Windows...próximamente Linux!","lat":40.42,"sexo":"X"},{"registrado":"04/05/2017","inscrito":"06/16/2017 08:40:10","lenguajes":"html, php y Business Intelligence applications","city":"Granada","lon":-3.59,"sexo":"male","lat":37.17,"os":"microsoft, hadoop"},{"lon":-3.59,"city":"Granada","lenguajes":"R, Stata, Visual Basic, C++.","inscrito":"10/26/2017 12:49:45","registrado":"10/26/2017","os":"Windows, Mac OS.","lat":37.17,"sexo":"male"},{"sexo":"male","os":"Windows y Linux","lat":41.4,"city":"Barcelona","lenguajes":"R, Python, C++, SQL","registrado":"07/07/2017","inscrito":"07/07/2017 09:29:11","lon":2.17},{"lat":37.17,"os":"Arch Linux","sexo":"male","lon":-3.59,"inscrito":"06/09/2017 14:42:49","registrado":"12/31/2015","lenguajes":"Ruby! C++, R, JavaScript (y algo de Haskell, Java y Python)","city":"Granada"},{"os":"Windows","lat":37.17,"sexo":"male","lon":-3.59,"city":"Granada","lenguajes":"R, python","registrado":"10/31/2017","inscrito":"10/31/2017 12:53:19"},{"lon":-3.59,"inscrito":"06/07/2017 16:55:21","registrado":"06/07/2017","lenguajes":"PHP, JavaScript, SQL, R, Java, C++","city":"Granada","os":"Linux, Windows","lat":37.17,"sexo":"male"},{"lat":36.83,"os":"windows","sexo":"male","lon":-2.43,"registrado":"10/23/2017","inscrito":"10/23/2017 11:10:45","city":"Almería","lenguajes":"SPSS, R, Python"},{"lon":-0.39,"inscrito":"04/22/2017 02:05:54","registrado":"04/21/2017","lenguajes":"R","city":"Valencia","lat":39.48,"os":"Windows y Linux","sexo":"male"},{"lon":-3.59,"lenguajes":"java, R","city":"Granada","registrado":"06/09/2017","inscrito":"06/09/2017 14:37:46","lat":37.17,"os":"Linux, Windows","sexo":"male"},{"lenguajes":"R","city":"Granada","registrado":"07/12/2017","inscrito":"07/12/2017 18:33:20","lon":-3.59,"sexo":"male","lat":37.17,"os":"Mac & Windows"},{"lon":-3.59,"city":"Granada","lenguajes":"R, C#, SQL","inscrito":"06/02/2017 09:07:22","registrado":"06/02/2017","os":"Windows y Linux","lat":37.17,"sexo":"male"},{"lon":-3.59,"lenguajes":"Java y Python","city":"Granada","registrado":"09/19/2017","inscrito":"10/18/2017 01:18:10","os":"Linux (Fedora 26).","lat":37.17,"sexo":"male"},{"sexo":"female","lat":37.17,"os":"Windows","city":"Granada","lenguajes":"Matlab y R","registrado":"07/03/2017","inscrito":"07/03/2017 16:48:19","lon":-3.59},{"lenguajes":"sql\nmdx\nDax\nexcel\n","city":"Granada","registrado":"11/13/2017","inscrito":"11/13/2017 17:33:59","lon":-3.59,"sexo":"female","os":"windows","lat":37.17},{"lenguajes":"R, vba, sql, mysql","city":"Osuna","registrado":"10/26/2017","inscrito":"10/26/2017 13:07:01","lon":-5.1,"sexo":"female","os":"Windows","lat":37.24},{"inscrito":"11/03/2017 11:31:40","registrado":"03/01/2017","lenguajes":"Python, R","city":"Granada","lon":-3.59,"sexo":"X","lat":37.17,"os":"Windows. Ocasionalmente linux."},{"lon":-3.59,"registrado":"08/03/2017","inscrito":"08/03/2017 18:32:09","city":"Granada","lenguajes":"Principalmente R","os":"Windows","lat":37.17,"sexo":"male"},{"sexo":"X","os":"Antergos,manjaro","lat":37.17,"registrado":"04/22/2017","inscrito":"06/22/2017 14:37:30","lenguajes":"Python","city":"Granada","lon":-3.59},{"lon":-3.59,"inscrito":"06/09/2017 14:45:37","registrado":"02/08/2017","city":"Granada","lenguajes":"C, C++, R, Scala, Java, Python...","os":"Windows y Ubuntu (Linux)","lat":37.17,"sexo":"female"},{"lon":-3.59,"lenguajes":"r SQL Python ","city":"Granada","registrado":"01/04/2017","inscrito":"04/20/2017 15:28:21","lat":37.17,"os":"Ubuntu windows","sexo":"male"},{"lon":-3.59,"city":"Granada","lenguajes":"Python, Java, C#","registrado":"05/29/2017","inscrito":"06/09/2017 17:34:25","os":"macOS, Windows","lat":37.17,"sexo":"female"},{"os":"Windows, Linux","lat":41.4,"sexo":"male","lon":2.17,"lenguajes":"R, R Studio","city":"Barcelona","inscrito":"05/19/2017 12:43:22","registrado":"05/19/2017"},{"lat":37.17,"os":"Windows 7 principalmente","sexo":"male","lon":-3.59,"registrado":"06/02/2017","inscrito":"06/02/2017 14:47:56","city":"Granada","lenguajes":"R\nSAS \nSPSS\nVB\nC#\nAlguno más mucho menos tiempo"},{"lon":-3.71,"inscrito":"09/01/2017 19:35:51","registrado":"09/01/2017","city":"Madrid","lenguajes":"R, python, C, SAS","lat":40.42,"os":"Windows","sexo":"male"},{"sexo":"male","lat":37.17,"os":"centOS7","city":"Granada","lenguajes":"R, Scala","registrado":"05/18/2016","inscrito":"04/20/2017 10:11:29","lon":-3.59},{"sexo":"male","lat":37.17,"os":"Linux","inscrito":"10/17/2017 15:34:36","registrado":"10/17/2017","lenguajes":"R\nRStudio\nLatex\nSPSS","city":"Granada","lon":-3.59},{"lon":-5.98,"inscrito":"06/19/2017 19:45:19","registrado":"06/19/2017","lenguajes":"R","city":"Sevilla","os":"Windows","lat":37.4,"sexo":"male"},{"lon":-3.59,"city":"Granada","lenguajes":"R","inscrito":"10/07/2017 14:00:16","registrado":"10/07/2017","lat":37.17,"os":"Windows","sexo":"female"},{"registrado":"08/14/2017","inscrito":"08/14/2017 11:31:02","lenguajes":"R, python, scala, Hivesql, sas, matlab, spark, hadoop, Tensorflow,...","city":"Madrid","lon":-3.71,"sexo":"male","lat":40.42,"os":"Linux, windows"},{"sexo":"male","lat":40.42,"os":"Linux,Windows","city":"Madrid","lenguajes":"R,python, scala","inscrito":"08/14/2017 11:37:14","registrado":"08/14/2017","lon":-3.71},{"lenguajes":"Principalmente JavaScript, pero que no pasa nada si hay que hacer algo en Python, Java, C++...","city":"Granada","registrado":"12/30/2015","inscrito":"04/19/2017 18:33:45","lon":-3.59,"sexo":"male","os":"El GNU/Linux que me dé por la racha, generalmente Ubuntu.","lat":37.17},{"lat":37.17,"os":"MacOS, Linux","sexo":"male","lon":-3.59,"inscrito":"06/15/2017 23:54:04","registrado":"06/15/2017","lenguajes":"R, Markdown, Latex","city":"Granada"},{"lat":37.17,"os":"Windows","sexo":"female","lon":-3.59,"lenguajes":"-R, con interfaz gráfica : RKWard , Rcmdr ( nivel principiante)\n-Gstat","city":"Granada","registrado":"06/10/2017","inscrito":"06/10/2017 13:08:22"},{"lenguajes":"SPSS, R, R-comander, Statgraphics ","city":"Granada","inscrito":"11/07/2017 10:37:05","registrado":"11/06/2017","lon":-3.59,"sexo":"female","os":"Windows ","lat":37.17},{"lat":37.19,"os":"Ubuntu win8","sexo":"male","lon":-3.61,"inscrito":"10/27/2017 16:02:47","registrado":"10/27/2017","city":"Granada","lenguajes":"Python"},{"registrado":"05/19/2017","inscrito":"05/20/2017 01:04:07","city":"Madrid","lenguajes":"R, SAS, PYTHON","lon":-3.71,"sexo":"female","lat":40.42,"os":"MICROSOFT"},{"lenguajes":"R\nJava\nJavaScript","city":"Granada","inscrito":"11/03/2017 16:39:49","registrado":"11/03/2017","lon":-3.59,"sexo":"X","os":"Windows","lat":37.17},{"sexo":"female","lat":37.17,"os":"Windows 7","registrado":"10/19/2017","inscrito":"10/19/2017 17:33:30","city":"Granada","lenguajes":"Stata, Gretl, R, RStudio","lon":-3.59},{"lon":-3.59,"city":"Granada","lenguajes":"R","inscrito":"04/20/2017 14:38:55","registrado":"01/26/2016","os":"MAC OS X y Ubuntu","lat":37.17,"sexo":"male"},{"lenguajes":"Matlab y R","city":"Granada","inscrito":"09/30/2017 10:12:36","registrado":"09/30/2017","lon":-3.59,"sexo":"male","lat":37.17,"os":"Windows"},{"lat":37.17,"os":"Windows, Linux","sexo":"male","lon":-3.59,"city":"Granada","lenguajes":"R, Python, Matlab, C++, Java","inscrito":"07/21/2017 11:46:13","registrado":"07/21/2017"},{"os":"Windows","lat":40.42,"sexo":"male","lon":-3.71,"lenguajes":"R, Python, Java","city":"Madrid","registrado":"11/06/2017","inscrito":"11/07/2017 10:04:31"},{"sexo":"male","os":"Windows","lat":37.17,"lenguajes":"R, Matlab, Python","city":"Granada","inscrito":"05/24/2017 17:28:49","registrado":"05/24/2017","lon":-3.59},{"lon":-3.59,"lenguajes":"C, python, Javascript","city":"Granada","inscrito":"09/12/2017 00:11:14","registrado":"09/11/2017","lat":37.17,"os":"Windows","sexo":"male"},{"os":"Windows y Ubuntu","lat":37.17,"sexo":"male","lon":-3.59,"city":"Granada","lenguajes":"C++, R, Java, PHP, HTML, CSS....","inscrito":"09/11/2017 13:03:52","registrado":"09/11/2017"},{"sexo":"male","lat":37.17,"os":"Windows, Linux e iOS","lenguajes":"Matlab y R","city":"Granada","inscrito":"11/06/2017 13:29:27","registrado":"11/06/2017","lon":-3.59},{"sexo":"male","os":"Windows","lat":40.42,"registrado":"09/05/2017","inscrito":"09/05/2017 17:17:15","city":"Madrid","lenguajes":"R","lon":-3.71},{"sexo":"male","os":"Linux y windows","lat":37.17,"city":"Granada","lenguajes":"R ","registrado":"06/09/2017","inscrito":"06/09/2017 18:58:03","lon":-3.59},{"sexo":"male","lat":37.1699981689453,"os":null,"registrado":"12/15/2015","inscrito":"04/19/2017 18:33:47","city":"Granada","lenguajes":null,"lon":-3.58999991416931},{"os":"Microsoft y Linux (Ubuntu)","lat":37.17,"sexo":"male","lon":-3.59,"city":"Granada","lenguajes":"Lenguaje de programación R\r\nVBA","inscrito":"04/27/2017 09:07:58","registrado":"04/27/2017"},{"sexo":"male","lat":42.88,"os":"Windows 7","lenguajes":"R","city":"Santiago de Compostela","inscrito":"09/26/2017 19:31:05","registrado":"09/26/2017","lon":-8.54},{"registrado":"10/24/2017","inscrito":"10/24/2017 17:27:38","city":"Granada","lenguajes":"R, QGIS, GeoDa","lon":-3.59,"sexo":"male","lat":37.17,"os":"Ubuntu"},{"lat":37.17,"os":"Windows","sexo":"male","lon":-3.59,"inscrito":"09/19/2017 20:12:04","registrado":"09/04/2017","city":"Granada","lenguajes":"R, Matlab, Python, SPSS, C, C++, Visual Studio, Html5+css3, php, arcgys"},{"os":"Linux","lat":37.17,"sexo":"male","lon":-3.59,"inscrito":"10/31/2017 09:04:34","registrado":"10/31/2017","lenguajes":"Python, C/C++, Java","city":"Granada"},{"lat":36.83,"os":".","sexo":"male","lon":-2.43,"lenguajes":"R y Python","city":"Almería","inscrito":"07/03/2017 09:47:44","registrado":"07/03/2017"},{"sexo":"male","os":".","lat":36.72,"city":"Málaga","lenguajes":"R y Python","registrado":"07/03/2017","inscrito":"07/03/2017 09:35:53","lon":-4.42},{"os":"GNU/Linux","lat":37.98,"sexo":"male","lon":-1.13,"registrado":"10/29/2017","inscrito":"10/29/2017 23:04:17","lenguajes":"git, R, vim, bash, mc, firefox, pandoc, LaTeX, grass, inkscape, gimp, thunderbird, openshot, audacity, ...","city":"Murcia"},{"sexo":"male","lat":40.42,"os":"Llevo años usando xubuntu. ","registrado":"04/07/2017","inscrito":"04/19/2017 18:33:47","lenguajes":"R, python,  y poco más","city":"Madrid","lon":-3.71},{"os":"Windows","lat":41.4,"sexo":"male","lon":2.17,"registrado":"06/16/2017","inscrito":"06/16/2017 13:23:39","city":"Barcelona","lenguajes":"R, Stata, SPSS, Cognos."},{"lon":-5.98,"lenguajes":"R","city":"Sevilla","registrado":"06/22/2017","inscrito":"06/22/2017 08:30:21","lat":37.4,"os":"windows","sexo":"male"},{"lon":-4.42,"inscrito":"09/09/2017 17:43:04","registrado":"09/09/2017","city":"Málaga","lenguajes":"R.Commander. R.TeMiS","lat":36.72,"os":"Windows 10","sexo":"male"},{"registrado":"11/02/2017","inscrito":"11/02/2017 09:21:20","city":"Granada","lenguajes":"R, MatLab, E-views, LaTex","lon":-3.59,"sexo":"male","os":"iOS ","lat":37.17},{"inscrito":"04/23/2017 12:33:28","registrado":"02/15/2017","city":"Granada","lenguajes":"C, C++, Python, JAVA, JS.","lon":-3.59,"sexo":"male","lat":37.17,"os":"Debian, Ubuntu, Windows 10."},{"lon":2.17,"inscrito":"06/16/2017 14:40:03","registrado":"06/16/2017","lenguajes":"R","city":"Barcelona","lat":41.4,"os":"Windows","sexo":"male"},{"sexo":"male","lat":37.17,"os":"Windows 10","inscrito":"10/06/2017 18:56:25","registrado":"10/06/2017","lenguajes":"R","city":"Granada","lon":-3.59},{"city":"Granada","lenguajes":"Python, JS, C++","inscrito":"10/31/2017 15:31:51","registrado":"10/31/2017","lon":-3.59,"sexo":"male","os":"Linux, Windows 10","lat":37.17},{"lon":-3.71,"city":"Madrid","lenguajes":"R, SQL","inscrito":"10/30/2017 19:38:44","registrado":"10/30/2017","os":"Ubuntu, Windows","lat":40.42,"sexo":"male"},{"lon":-3.59,"city":"Granada","lenguajes":"Lenguaje de programación R","registrado":"11/06/2017","inscrito":"11/06/2017 13:40:31","os":"Window","lat":37.17,"sexo":"female"},{"lat":37.17,"os":"Windows","sexo":"female","lon":-3.59,"registrado":"10/06/2017","inscrito":"10/06/2017 19:13:07","lenguajes":"R, Matlab","city":"Granada"},{"lon":-3.59,"city":"Granada","lenguajes":"R","registrado":"11/06/2017","inscrito":"11/06/2017 13:14:29","os":"Windows, Mac, Ubuntu","lat":37.17,"sexo":"male"},{"lat":37.17,"os":"windows","sexo":"male","lon":-3.59,"lenguajes":"R","city":"Granada","inscrito":"09/08/2017 14:17:59","registrado":"09/08/2017"},{"lon":-3.59,"city":"Granada","lenguajes":"R","inscrito":"09/30/2017 18:47:39","registrado":"09/30/2017","os":"Ubuntu","lat":37.17,"sexo":"male"},{"sexo":"male","os":"Ubuntu\nwindows","lat":37.17,"inscrito":"10/20/2017 10:23:35","registrado":"10/20/2017","lenguajes":"R\nPyton (algo)","city":"Granada","lon":-3.59},{"sexo":"male","lat":40.42,"os":"Linux, windows","lenguajes":"C, Ptyhon","city":"Madrid","registrado":"10/09/2016","inscrito":"08/08/2017 16:03:42","lon":-3.71},{"sexo":"male","lat":37.17,"os":null,"lenguajes":null,"city":"Granada","registrado":"02/03/2017","inscrito":"04/19/2017 18:33:47","lon":-3.59},{"os":"Windows y IOS","lat":37.17,"sexo":"male","lon":-3.59,"registrado":"11/13/2017","inscrito":"11/13/2017 17:21:09","city":"Granada","lenguajes":"R, Java, C..."},{"lon":-3.59,"registrado":"09/07/2017","inscrito":"09/07/2017 17:43:47","lenguajes":"Python, mariaDB, R, Java..","city":"Granada","os":"Win7 o Ubuntu","lat":37.17,"sexo":"female"},{"registrado":"10/08/2016","inscrito":"10/03/2017 11:03:42","city":"Granada","lenguajes":"C++, R, Scala, Java, C..","lon":-3.59,"sexo":"female","lat":37.17,"os":"Linux mint debian based"},{"sexo":"female","lat":37.17,"os":"Windows","city":"Granada","lenguajes":"R, SAS","registrado":"11/06/2017","inscrito":"11/06/2017 13:08:45","lon":-3.59},{"lon":5.17,"lenguajes":"R","city":"Almere","registrado":"09/19/2017","inscrito":"09/19/2017 10:41:34","os":"Windows y Linux","lat":52.36,"sexo":"female"},{"sexo":"female","lat":37.17,"os":"IOS","lenguajes":"Visual Basic y R","city":"Granada","inscrito":"07/12/2017 17:41:13","registrado":"07/12/2017","lon":-3.59},{"sexo":"male","lat":37.17,"os":"mac","registrado":"04/20/2017","inscrito":"04/20/2017 11:53:59","lenguajes":"neo4j, docker, couchdb, matlab, phyton, R, javascript, java...","city":"Granada","lon":-3.59},{"lat":37.17,"os":"Windows","sexo":"male","lon":-3.59,"lenguajes":"R","city":"Granada","inscrito":"09/01/2017 18:20:05","registrado":"09/01/2017"},{"lon":-3.59,"lenguajes":"R, R-Studio, arcGIS","city":"Granada","inscrito":"06/28/2017 10:51:31","registrado":"05/26/2017","os":"Windows","lat":37.17,"sexo":"female"},{"sexo":"male","lat":37.17,"os":"Windows 10","city":"Granada","lenguajes":"R","inscrito":"08/07/2017 20:32:47","registrado":"08/07/2017","lon":-3.59},{"inscrito":"11/06/2017 10:10:09","registrado":"11/06/2017","lenguajes":"R","city":"Granada","lon":-3.59,"sexo":"female","lat":37.17,"os":"Windows"},{"os":"windows","lat":37.17,"sexo":"female","lon":-3.59,"lenguajes":"R","city":"Granada","inscrito":"08/16/2017 19:48:37","registrado":"08/16/2017"},{"lon":2.17,"city":"Barcelona","lenguajes":"R, SAS, Python SQL\n","registrado":"07/07/2017","inscrito":"07/07/2017 09:12:22","os":"Windows / Linux","lat":41.4,"sexo":"female"},{"sexo":"female","os":"Windows","lat":37.17,"registrado":"10/20/2017","inscrito":"10/20/2017 14:47:35","lenguajes":"R","city":"Granada","lon":-3.59},{"sexo":"female","os":"Windows","lat":37.17,"lenguajes":"R, Fortran","city":"Granada","registrado":"09/07/2017","inscrito":"09/07/2017 13:02:03","lon":-3.59},{"sexo":"male","lat":37.4,"os":"Linux, Windows","registrado":"10/17/2017","inscrito":"10/17/2017 10:30:20","lenguajes":"R, Python","city":"Sevilla","lon":-5.98},{"lon":12.09,"lenguajes":"R, JS, D3.js, Python, C++, Processing, PureData, MaxMsP, TangibleData, SAS","city":"Roskilde","inscrito":"11/03/2017 11:06:20","registrado":"11/03/2017","os":"mac osx 10.9","lat":55.65,"sexo":"male"},{"inscrito":"10/28/2017 10:30:12","registrado":"04/18/2017","lenguajes":"R, Stata, Linux, Github","city":"Cambridge","lon":-71.13,"sexo":"X","os":"MAC\nWindows\nUnix","lat":42.38},{"os":"Windows 10","lat":36.53,"sexo":"male","lon":-6.29,"inscrito":"10/30/2017 17:57:38","registrado":"10/30/2017","city":"Cádiz","lenguajes":"Python, R, C++"},{"sexo":"female","os":"Linux","lat":51.52,"registrado":"09/26/2017","inscrito":"10/03/2017 11:34:21","lenguajes":"None","city":"London","lon":-0.1},{"lat":20.67,"os":"Linux, Windows","sexo":"X","lon":-103.35,"inscrito":"09/11/2017 23:56:29","registrado":"09/11/2017","lenguajes":"Java, C","city":"Guadalajara"},{"lon":-3.59,"lenguajes":"R, Python, C++","city":"Granada","inscrito":"06/07/2017 18:36:18","registrado":"04/26/2016","os":"Ubuntu","lat":37.17,"sexo":"male"},{"lat":37.17,"os":"Linux y Windows","sexo":"female","lon":-3.59,"lenguajes":"R y Python","city":"Granada","registrado":"06/17/2017","inscrito":"06/17/2017 14:48:35"},{"city":"Granada","lenguajes":"Java","registrado":"09/11/2017","inscrito":"09/11/2017 23:59:14","lon":-3.59,"sexo":"female","os":"OSx","lat":37.17},{"lon":-3.71,"registrado":"09/05/2016","inscrito":"04/19/2017 18:33:47","lenguajes":"R","city":"Madrid","lat":40.42,"os":"Linux","sexo":"female"},{"sexo":"X","lat":37.17,"os":"windows, mac","lenguajes":"R","city":"Granada","inscrito":"11/07/2017 16:55:25","registrado":"11/07/2017","lon":-3.59},{"sexo":"female","os":"windows","lat":37.17,"registrado":"11/06/2017","inscrito":"11/06/2017 16:53:29","city":"Granada","lenguajes":"R","lon":-3.59},{"registrado":"09/20/2017","inscrito":"09/20/2017 11:13:41","city":"Granada","lenguajes":"R_Studio, TransCad, TransModeler, Aimsun","lon":-3.59,"sexo":"male","os":"WINDOWS","lat":37.17},{"os":"WINDOWS,LINUX,UNIX","lat":37.17,"sexo":"male","lon":-3.59,"registrado":"10/20/2017","inscrito":"11/03/2017 14:17:14","lenguajes":"R,PyTHON,SQLSERVER,ORACLE,TERADATA,SAS, CLEMENTINE, ETC...","city":"Granada"},{"os":"Unix","lat":37.17,"sexo":"male","lon":-3.59,"lenguajes":"R, PWC, SAS","city":"Granada","inscrito":"11/13/2017 17:19:12","registrado":"11/13/2017"},{"lon":-3.71,"city":"Madrid","lenguajes":"R, python, Spark, H2O","registrado":"09/24/2017","inscrito":"09/24/2017 11:00:56","lat":40.42,"os":"Windows ","sexo":"male"},{"inscrito":"09/12/2017 14:10:04","registrado":"09/19/2016","lenguajes":"C, Python y JavaScript ","city":"Granada","lon":-3.59,"sexo":"male","os":"Debian y macOS","lat":37.17},{"os":"Windows y MacOS","lat":40.42,"sexo":"male","lon":-3.71,"lenguajes":"R y SAS","city":"Madrid","inscrito":"11/07/2017 10:39:42","registrado":"11/06/2017"},{"lon":-3.59,"lenguajes":"R, C, C++, Java, Python,","city":"Granada","inscrito":"09/28/2017 13:41:13","registrado":"09/28/2017","os":"ubuntu, windows","lat":37.17,"sexo":"male"},{"lat":37.17,"os":"Windows","sexo":"male","lon":-3.59,"inscrito":"10/21/2017 04:39:06","registrado":"10/20/2017","lenguajes":"R","city":"Granada"},{"lenguajes":"R","city":"Madrid","registrado":"08/19/2017","inscrito":"08/19/2017 18:48:33","lon":-3.71,"sexo":"male","lat":40.42,"os":"Linux, Windows"},{"registrado":"09/15/2017","inscrito":"09/15/2017 15:12:18","lenguajes":"R, Pyhton, SQL, C, Matlab, Tableau","city":"Barcelona","lon":2.17,"sexo":"female","os":"Windows","lat":41.4},{"lat":37.17,"os":"macOS","sexo":"male","lon":-3.59,"city":"Granada","lenguajes":"R","registrado":"11/13/2017","inscrito":"11/13/2017 21:53:03"},{"lat":40.42,"os":"Linux, windows10","sexo":"male","lon":-3.71,"inscrito":"05/18/2017 12:32:10","registrado":"05/18/2017","city":"Madrid","lenguajes":"R"},{"lon":-3.59,"registrado":"04/24/2016","inscrito":"06/09/2017 14:26:15","lenguajes":"C/C++, Java, R, Ruby","city":"Granada","os":"Mac OSX","lat":37.17,"sexo":"male"},{"sexo":"male","os":"Windows","lat":37.17,"city":"Granada","lenguajes":"R, Java, Python, C++","registrado":"10/09/2017","inscrito":"10/09/2017 13:12:39","lon":-3.59},{"sexo":"female","lat":37.17,"os":"windows","lenguajes":"R,spss,Stagraphics,Excell","city":"Granada","registrado":"11/03/2017","inscrito":"11/03/2017 12:15:51","lon":-3.59},{"sexo":"female","lat":37.98,"os":"Windows","registrado":"11/06/2017","inscrito":"11/07/2017 10:30:04","city":"Murcia","lenguajes":"R,\n","lon":-1.13},{"os":"Windows","lat":37.17,"sexo":"female","lon":-3.59,"lenguajes":"R, java, javascript,python","city":"Granada","registrado":"09/09/2017","inscrito":"09/09/2017 11:42:08"},{"sexo":"female","lat":37.17,"os":"Mac OS, Linux","inscrito":"06/29/2017 16:33:04","registrado":"06/24/2017","city":"Granada","lenguajes":"C, C++, Python, Ruby, Java, Pascal, Delphi, Basic, SmallTalk, Eiffel, AIML, Perl, R, Matlab y ya he perdido la cuenta...","lon":-3.59},{"lat":37.17,"os":"Windows","sexo":"female","lon":-3.59,"inscrito":"11/06/2017 13:06:14","registrado":"11/06/2017","city":"Granada","lenguajes":"R"},{"os":"Windows 7","lat":40.42,"sexo":"male","lon":-3.71,"city":"Madrid","lenguajes":"Java, JavaScript, SQL, HTML, CSS","registrado":"12/19/2016","inscrito":"09/05/2017 11:47:33"},{"lon":-3.59,"lenguajes":"R, SPSS, Matlab, Stata, Gretl","city":"Granada","registrado":"10/20/2017","inscrito":"10/20/2017 12:32:26","lat":37.17,"os":"Windows","sexo":"male"},{"city":"Granada","lenguajes":"R, SPSS, PAST, Statistica, etc.","inscrito":"05/29/2017 11:03:05","registrado":"05/29/2017","lon":-3.59,"sexo":"female","os":"MAC, Linux","lat":37.17},{"sexo":"male","os":"Windows, Linux","lat":39.48,"lenguajes":"R, BUGS, INLA, Shiny","city":"Valencia","inscrito":"05/22/2017 11:52:52","registrado":"05/22/2017","lon":-0.39},{"inscrito":"04/23/2017 12:34:18","registrado":"02/27/2017","lenguajes":"python","city":"Granada","lon":-3.59,"sexo":"male","os":"windows","lat":37.17},{"inscrito":"09/01/2017 21:03:50","registrado":"09/01/2017","lenguajes":"C++, R, Python, otros","city":"Madrid","lon":-3.71,"sexo":"male","os":"Linux","lat":40.42},{"sexo":"female","os":"Windows","lat":37.4,"city":"Sevilla","lenguajes":"R, DeltaDNA","registrado":"11/03/2017","inscrito":"11/03/2017 11:44:18","lon":-5.98},{"lon":-3.59,"inscrito":"10/16/2017 22:52:14","registrado":"10/16/2017","lenguajes":"R, SQL, PowerBI","city":"Granada","os":"windows","lat":37.17,"sexo":"female"},{"sexo":"female","os":"Windows","lat":37.17,"lenguajes":"R, \nAprendiendo: IBM spss, Maple\nTambién usé: Python (Spyder) y Matlab pero no me manejo bien en ellos","city":"Granada","registrado":"09/26/2017","inscrito":"09/26/2017 19:18:26","lon":-3.59},{"lat":37.17,"os":"Windows, Unix","sexo":"male","lon":-3.59,"registrado":"11/03/2017","inscrito":"11/03/2017 18:02:36","city":"Granada","lenguajes":"SAS, SPSS, MATLAB/Octave, Python, R, SQL"},{"lon":-3.59,"inscrito":"11/11/2017 09:48:09","registrado":"11/10/2017","lenguajes":"R\r\nSAS","city":"Granada","lat":37.17,"os":"windows","sexo":"female"},{"os":".","lat":37.17,"sexo":"X","lon":-3.59,"inscrito":"04/19/2017 18:33:46","registrado":"02/12/2016","city":"Granada","lenguajes":"."},{"sexo":"female","lat":37.17,"os":"Windous","lenguajes":"R commander, SPSS, Excel , Stagraphic","city":"Granada","inscrito":"11/03/2017 11:55:17","registrado":"11/03/2017","lon":-3.59},{"os":"Windows","lat":37.17,"sexo":"female","lon":-3.59,"registrado":"10/19/2016","inscrito":"07/03/2017 09:34:26","lenguajes":"R","city":"Granada"},{"lon":-3.71,"inscrito":"07/05/2017 19:50:08","registrado":"07/05/2017","city":"Madrid","lenguajes":"Estoy iniciándome como Data Scientist, tengo conocimientos limitados de R. Intención y muchas ganas de dominarlo. Además tengo nociones básicas de C, HTML, JavaScript, PHP y me gustaría iniciarme en Python","os":"Windows","lat":40.42,"sexo":"female"},{"registrado":"09/28/2017","inscrito":"09/28/2017 18:15:16","lenguajes":"Matlab, R","city":"Granada","lon":-3.59,"sexo":"male","os":"MAC OS","lat":37.17},{"lon":-3.59,"inscrito":"11/06/2017 12:12:35","registrado":"11/06/2017","lenguajes":"R, JAVA, C++","city":"Granada","os":"macOS, Windows 10, Ubuntu 14.04","lat":37.17,"sexo":"male"},{"sexo":"female","lat":37.17,"os":"Windows","registrado":"11/03/2017","inscrito":"11/03/2017 16:45:41","city":"Granada","lenguajes":"R","lon":-3.59},{"os":"GNU/Linux","lat":37.98,"sexo":"male","lon":-1.13,"city":"Murcia","lenguajes":"R","registrado":"09/28/2017","inscrito":"09/28/2017 10:21:39"},{"lon":-3.59,"city":"Granada","lenguajes":"Java\r\nR\r\nPython","registrado":"11/06/2017","inscrito":"11/06/2017 13:04:17","lat":37.17,"os":"Windows 10\r\nUbuntu","sexo":"male"},{"lon":-3.59,"lenguajes":"R, Python, C++","city":"Granada","inscrito":"10/30/2017 17:56:50","registrado":"10/30/2017","os":"windows 10","lat":37.17,"sexo":"male"},{"lon":-3.59,"inscrito":"11/03/2017 20:06:16","registrado":"11/03/2017","city":"Granada","lenguajes":"R, Python, Java","lat":37.17,"os":"Windows y Linux","sexo":"male"}]